[
  {"id":24,"name":"Ohab Zedek","address":"118 W. 95th St. ","city":"New York","state":"NY","zip":"10025","lat":40.792404,"lng":-73.968576,"nusach":"Ashkenaz","rabbi":"Rabbi Allen Schwartz","phone":"212-749-5150","email":null,"website":"http://www.ozny.org/","shacharis":{"sun":["08:00","09:00"],"mon_thu":["06:05","06:50","07:55"],"tue_wed_fri":["06:15","07:00","08:00"],"rosh_chodesh":["06:00","06:45","07:45"]},"mincha":{"week":[],"fri":[],"shabbos":[]},"maariv":{"week":[],"shabbos":[]},"mincha_txt":"Winter - Bizman,  Summer - Bizman and 7:00pm (from start of DST until approximately Rosh Hashana)","maariv_txt":"Following Mincha.  Late Maarv is Tuesday at 10:00 pm"},
  {"id":27,"name":"Radio City Synagogue","address":"30 W. 47th St.","city":"New York","state":"NY","zip":"10036","lat":40.757217,"lng":-73.979682,"nusach":"Other","rabbi":"Rabbi Shmuel Levitin","phone":"212-819-0839","email":null,"website":null,"shacharis":{"sun":[],"mon_thu":[],"tue_wed_fri":[],"rosh_chodesh":[]},"mincha":{"week":["13:45","17:15"],"fri":[],"shabbos":[]},"maariv":{"week":[],"shabbos":[]},"mincha_txt":"(Daf Yomi at 1:00 PM)","maariv_txt":"Follows late Mincha"},
  {"id":28,"name":"Congregation Beth Israel West Side Jewish Center","address":"347 W. 34th St.","city":"New York","state":"NY","zip":"10001","lat":40.752851,"lng":-73.994894,"nusach":"Other","rabbi":"Rabbi Jason Herman","phone":"212-502-5291","email":"info@westsidejewishcenter.org","website":"http://www.westsidejewishcenter.org","shacharis":{"sun":[],"mon_thu":["06:45","07:55"],"tue_wed_fri":["06:50","08:00"],"rosh_chodesh":["06:30"]},"mincha":{"week":["13:40"],"fri":[],"shabbos":[]},"maariv":{"week":[],"shabbos":[]},"maariv_txt":"Please check our website for accurate times."},
  {"id":1001,"name":"Beth Medrash Govoha (BMG)","address":"617 6th St","city":"Lakewood","state":"NJ","zip":"08701","lat":40.0935,"lng":-74.2158,"nusach":"Ashkenaz","shacharis":{"sun":["07:40","08:45"],"mon_thu":["07:40","08:45"],"tue_wed_fri":["07:40","08:45"],"rosh_chodesh":["07:30","08:30"]},"mincha":{"week":["13:45","15:25"],"fri":[],"shabbos":[]},"maariv":{"week":["22:00","23:00"],"shabbos":[]}},
  {"id":1003,"name":"Khal Ytev Lev (Satmar)","address":"405 Forest Ave","city":"Lakewood","state":"NJ","zip":"08701","lat":40.0898,"lng":-74.2165,"nusach":"Sefard","shacharis":{"sun":["07:30","08:30","09:30"],"mon_thu":["07:00","08:00","09:00"],"tue_wed_fri":["07:00","08:00","09:00"],"rosh_chodesh":[]},"mincha":{"week":["14:00"],"fri":[],"shabbos":[]},"maariv":{"week":["20:00","21:00"],"shabbos":[]}},
  {"id":1005,"name":"Chestnut Shul","address":"105 Chestnut St","city":"Lakewood","state":"NJ","zip":"08701","lat":40.0526,"lng":-74.2161,"nusach":"Sefard","shacharis":{"sun":["07:00","08:00","09:00"],"mon_thu":["06:30","07:30"],"tue_wed_fri":["06:30","07:30"],"rosh_chodesh":[]},"mincha":{"week":["13:45","17:09"],"fri":[],"shabbos":[]},"maariv":{"week":["19:00","20:45","22:00"],"shabbos":[]}},
  {"id":1009,"name":"Lakewood Commons Shul","address":"44 Coles Way","city":"Lakewood","state":"NJ","zip":"08701","lat":40.0385,"lng":-74.2255,"nusach":"Ashkenaz","shacharis":{"sun":["07:20","07:35","07:40","08:00","08:20"],"mon_thu":["07:20","08:00"],"tue_wed_fri":["07:20","08:00"],"rosh_chodesh":[]},"mincha":{"week":["13:15","13:50"],"fri":[],"shabbos":[]},"maariv":{"week":["21:30","22:00","22:20"],"shabbos":[]}},
  {"id":1033,"name":"Congregation Sons of Israel","address":"590 Madison Ave","city":"Lakewood","state":"NJ","zip":"08701","lat":40.0955,"lng":-74.2125,"nusach":"Ashkenaz","shacharis":{"sun":["08:00","08:15","08:30"],"mon_thu":["07:00","07:50"],"tue_wed_fri":["07:00","07:50"],"rosh_chodesh":[]},"mincha":{"week":["13:35","16:52"],"fri":[],"shabbos":[]},"maariv":{"week":["21:30","22:00"],"shabbos":[]}},
  {"id":9999,"name":"Sample Shul (For Testing)","address":"123 Main St","city":"Anytown","state":"NY","zip":"10001","lat":40.7128,"lng":-74.0060,"nusach":"Ashkenaz","rabbi":"Rabbi Test","shacharis":{"sun":["08:00"],"mon_thu":["07:00"],"tue_wed_fri":["07:00"],"rosh_chodesh":[]},"mincha":{"week":["13:00"],"fri":[],"shabbos":[]},"maariv":{"week":["20:00"],"shabbos":[]}}
]
